[
  {
    "schoolId": "38020",
    "schoolNumber": "40020",
    "county": "Telemark",
    "organizationNumber": "974568098",
    "organizationNumber360": "974568098",
    "name": "Bamble vgs",
    "fullName": "Bamble videregående skole",
    "shortName": "BAV",
    "officialName": "Bamble videregående skole",
    "accessGroup": "Elev Bamble vgs",
    "phoneNumber": "35 91 94 00",
    "mail": "bamble.vgs@vtfk.no",
    "address": {
      "street": "Tønderveien 6",
      "zip": "3961",
      "place": "Stathelle"
    },
    "geocoded": {
      "lat": "59.02786",
      "lon": "9.70322"
    },
    "yff": true
  },
  {
    "schoolId": "38008",
    "schoolNumber": "40008",
    "county": "Telemark",
    "organizationNumber": "974567997",
    "organizationNumber360": "974567997",
    "name": "Bø vgs",
    "fullName": "Bø vidaregåande skule",
    "shortName": "BOV",
    "officialName": "Bø vidaregåande skule",
    "accessGroup": "Elev Bø vgs",
    "phoneNumber": "35 91 90 00",
    "mail": "bo.vgs@vtfk.no",
    "address": {
      "street": "Gymnasbakken 23",
      "zip": "3802",
      "place": "Bø"
    },
    "geocoded": {
      "lat": "59.41723",
      "lon": "9.06292"
    },
    "yff": false
  },
  {
    "schoolId": "38002",
    "schoolNumber": "40002",
    "county": "Telemark",
    "organizationNumber": "874568082",
    "organizationNumber360": "874568082",
    "name": "Rjukan vgs",
    "fullName": "Rjukan videregående skole",
    "shortName": "RJV",
    "officialName": "Rjukan videregående skole",
    "accessGroup": "Elev Rjukan vgs",
    "phoneNumber": "35 91 99 00",
    "mail": "rjukan.vgs@vtfk.no",
    "address": {
      "street": "Såheimveien 22",
      "zip": "3660",
      "place": "Rjukan"
    },
    "geocoded": {
      "lat": "59.87821",
      "lon": "8.58058"
    },
    "yff": true
  },
  {
    "schoolId": "38022",
    "schoolNumber": "40022",
    "county": "Telemark",
    "organizationNumber": "974568004",
    "organizationNumber360": "974568004",
    "name": "Kragerø vgs",
    "fullName": "Kragerø videregående skole",
    "shortName": "KRV",
    "officialName": "Kragerø videregående skole",
    "accessGroup": "Elev Kragerø vgs",
    "phoneNumber": "35 91 95 00",
    "mail": "kragero.vgs@vtfk.no",
    "address": {
      "street": "Frydensborgveien 9-11",
      "zip": "3770",
      "place": "Kragerø"
    },
    "geocoded": {
      "lat": "58.87151",
      "lon": "9.39249"
    },
    "yff": true
  },
  {
    "schoolId": "38006",
    "schoolNumber": "40006",
    "county": "Telemark",
    "organizationNumber": "974568012",
    "organizationNumber360": "974568012",
    "name": "Notodden vgs",
    "fullName": "Notodden videregående skole",
    "shortName": "NOV",
    "officialName": "Notodden videregående skole",
    "accessGroup": "Elev Notodden vgs",
    "phoneNumber": "35 91 85 00",
    "mail": "notodden.vgs@vtfk.no",
    "address": {
      "street": "Heddalsveien 4",
      "zip": "3674",
      "place": "Notodden"
    },
    "geocoded": {
      "lat": "59.55564",
      "lon": "9.25747"
    },
    "yff": true
  },
  {
    "schoolId": "38018",
    "schoolNumber": "40018",
    "county": "Telemark",
    "organizationNumber": "974568020",
    "organizationNumber360": "974568020",
    "name": "Porsgrunn vgs",
    "fullName": "Porsgrunn videregående skole",
    "shortName": "POV",
    "officialName": "Porsgrunn videregående skole",
    "accessGroup": "Elev Porsgrunn vgs",
    "phoneNumber": "35 91 75 00",
    "mail": "porsgrunn.vgs@vtfk.no",
    "address": {
      "street": "Kjølnes Ring 58",
      "zip": "3918",
      "place": "PORSGRUNN"
    },
    "yff": true
  },
  {
    "schoolId": "38012",
    "schoolNumber": "40012",
    "county": "Telemark",
    "organizationNumber": "974568039",
    "organizationNumber360": "974568039",
    "name": "Skien vgs",
    "fullName": "Skien videregående skole",
    "shortName": "SKIV",
    "officialName": "Skien videregående skole",
    "accessGroup": "Elev Skien vgs",
    "phoneNumber": "35 91 80 00",
    "mail": "skien.vgs@vtfk.no",
    "address": {
      "street": "Hollenderigata 5",
      "zip": "3732",
      "place": "Skien"
    },
    "yff": true
  },
  {
    "schoolId": "38004",
    "schoolNumber": "40004",
    "county": "Telemark",
    "organizationNumber": "974568055",
    "organizationNumber360": "974568055",
    "name": "Vest-Telemark vgs",
    "fullName": "Vest-Telemark vidaregåande skule",
    "shortName": "VTV",
    "officialName": "Vest-Telemark vidaregåande skule",
    "accessGroup": "Elev Vest-Telemark vgs",
    "phoneNumber": "35 91 97 00",
    "mail": "vesttelemark.vgs@vtfk.no",
    "address": {
      "street": "Storvegen 195",
      "zip": "3880",
      "place": "Dalen"
    },
    "geocoded": {
      "lat": "59.44657",
      "lon": "7.98785"
    },
    "yff": true
  },
  {
    "schoolId": "38014",
    "schoolNumber": "40014",
    "county": "Telemark",
    "organizationNumber": "974568071",
    "organizationNumber360": "974568071",
    "name": "Hjalmar Johansen vgs",
    "fullName": "Hjalmar Johansen videregående skole",
    "shortName": "HJV",
    "officialName": "Hjalmar Johansen videregående skole",
    "accessGroup": "Elev Hjalmar Johansen vgs",
    "phoneNumber": "35 91 83 00",
    "mail": "hjalmarjohansen.vgs@vtfk.no",
    "address": {
      "street": "Moflatvegen 38",
      "zip": "3733",
      "place": "Skien"
    },
    "yff": true
  },
  {
    "schoolId": "38016",
    "schoolNumber": "40016",
    "county": "Telemark",
    "organizationNumber": "974568152",
    "organizationNumber360": "974568152",
    "name": "Skogmo vgs",
    "fullName": "Skogmo videregående skole",
    "shortName": "SKOV",
    "officialName": "Skogmo videregående skole",
    "accessGroup": "Elev Skogmo vgs",
    "phoneNumber": "35 91 92 00",
    "mail": "skogmo.vgs@vtfk.no",
    "address": {
      "street": "Kjørbekkdalen 11",
      "zip": "3735",
      "place": "Skien"
    },
    "geocoded": {
      "lat": "59.17301",
      "lon": "9.62081"
    },
    "yff": true
  },
  {
    "schoolId": "38010",
    "schoolNumber": "40010",
    "county": "Telemark",
    "organizationNumber": "974568187",
    "organizationNumber360": "974568187",
    "name": "Nome vgs.",
    "fullName": "Nome videregående skole",
    "shortName": "NOMV",
    "officialName": "Nome videregående skole",
    "accessGroup": "Elev Nome vgs",
    "phoneNumber": "35 91 87 00",
    "mail": "nome.vgs@vtfk.no",
    "address": {
      "street": "Søveveien 8",
      "zip": "3830",
      "place": "Ulefoss"
    },
    "geocoded": {
      "lat": "59.27845",
      "lon": "9.28459"
    },
    "yff": true
  },
  {
    "schoolId": "38032",
    "schoolNumber": "39012",
    "county": "Vestfold",
    "organizationNumber": "974575086",
    "organizationNumber360": "974575086",
    "name": "Færder vgs",
    "fullName": "Færder videregående skole",
    "shortName": "FRV",
    "officialName": "Færder videregående skole",
    "accessGroup": "Elev Færder vgs",
    "phoneNumber": "33 30 96 00",
    "mail": "ferder.vgs@vtfk.no",
    "address": {
      "street": "Banebakken 44",
      "zip": "3127",
      "place": "TØNSBERG"
    },
    "geocoded": {
      "lat": "59.26096",
      "lon": "10.41013"
    },
    "yff": false
  },
  {
    "schoolId": "38042",
    "schoolNumber": "39002",
    "county": "Vestfold",
    "organizationNumber": "974575116",
    "organizationNumber360": "974575116",
    "name": "Sande vgs",
    "fullName": "Sande videregående skole",
    "shortName": "SANV",
    "officialName": "Sande videregående skole",
    "accessGroup": "Elev Sande vgs",
    "phoneNumber": "33 78 50 50",
    "mail": "sande.vgs@vtfk.no",
    "address": {
      "street": "Hans Kristian Evensens vei 53",
      "zip": "3076",
      "place": "SANDE"
    },
    "geocoded": {
      "lat": "59.58604",
      "lon": "10.24090"
    },
    "yff": false
  },
  {
    "schoolId": "38050",
    "schoolNumber": "39030",
    "county": "Vestfold",
    "organizationNumber": "994309153",
    "organizationNumber360": "994309153",
    "name": "Kompetansebyggeren",
    "fullName": "Kompetansebyggeren",
    "shortName": "KB",
    "officialName": "Kompetansebyggeren",
    "accessGroup": "Elev Kompetansebyggeren",
    "phoneNumber": "33 30 93 00",
    "mail": "kb@vtfk.no",
    "address": {
      "street": "Nordbyen 40",
      "zip": "3111",
      "place": "TØNSBERG"
    },
    "geocoded": {
      "lat": "59.27439",
      "lon": "10.39947"
    },
    "yff": false
  },
  {
    "schoolId": "38034",
    "schoolNumber": "39010",
    "county": "Vestfold",
    "organizationNumber": "974574993",
    "organizationNumber360": "974574993",
    "name": "Greveskogen vgs",
    "fullName": "Greveskogen videregående skole",
    "shortName": "GRV",
    "officialName": "Greveskogen videregående skole",
    "accessGroup": "Elev Greveskogen vgs",
    "phoneNumber": "33 01 61 00",
    "mail": "greveskogen.vgs@vfk.no",
    "address": {
      "street": "Eikveien 2",
      "zip": "3122",
      "place": "TØNSBERG"
    },
    "geocoded": {
      "lat": "59.28730",
      "lon": "10.41509"
    },
    "yff": false
  },
  {
    "schoolId": "38028",
    "schoolNumber": "39016",
    "county": "Vestfold",
    "organizationNumber": "974575051",
    "organizationNumber360": "974575051",
    "name": "Melsom vgs",
    "fullName": "Melsom videregående skole",
    "shortName": "MEV",
    "officialName": "Melsom videregående skole",
    "accessGroup": "Elev Melsom vgs",
    "phoneNumber": "33 36 39 00",
    "mail": "melsom.vgs@vtfk.no",
    "address": {
      "street": "Melsomvikveien 180",
      "zip": "3159",
      "place": "MELSOMVIK"
    },
    "geocoded": {
      "lat": "59.23004",
      "lon": "10.34694"
    },
    "yff": false
  },
  {
    "schoolId": "38060",
    "schoolNumber": "39040",
    "county": "Vestfold",
    "organizationNumber": "973754815",
    "organizationNumber360": "973754815",
    "name": "SMI-skolen",
    "fullName": "Skolen for sosiale og medisinske institusjoner",
    "shortName": "SMI",
    "officialName": "Skolen for sosiale og medisinske institusjoner",
    "accessGroup": "Elev skolen for sosiale og medisinske institusjoner",
    "phoneNumber": "47 89 40 00",
    "mail": "smi-skolen@vtfk.no",
    "address": {
      "street": "Melsomvikveien 182",
      "zip": "3159",
      "place": "MELSOMVIK"
    },
    "geocoded": {
      "lat": "59.22987",
      "lon": "10.34326"
    },
    "yff": false
  },
  {
    "schoolId": "38038",
    "schoolNumber": "39006",
    "county": "Vestfold",
    "organizationNumber": "874575232",
    "organizationNumber360": "874575232",
    "name": "Re vgs",
    "fullName": "Re videregående skole",
    "shortName": "REV",
    "officialName": "Re videregående skole",
    "accessGroup": "Elev Re vgs",
    "phoneNumber": "33 30 66 30",
    "mail": "postmottak.revgs@vtfk.no",
    "address": {
      "street": "Bergsåsveien 44",
      "zip": "3175",
      "place": "REVETAL"
    },
    "geocoded": {
      "lat": "59.35799",
      "lon": "10.24879"
    },
    "yff": false
  },
  {
    "schoolId": "38036",
    "schoolNumber": "39008",
    "county": "Vestfold",
    "organizationNumber": "923261354",
    "organizationNumber360": "923261354",
    "name": "Horten vgs",
    "fullName": "Horten videregående skole",
    "shortName": "HORV",
    "officialName": "Horten videregående skole",
    "accessGroup": "Elev Horten vgs",
    "phoneNumber": "33 07 90 00",
    "mail": "horten.vgs@vtfk.no",
    "address": {
      "street": "Strandpromenaden 33",
      "zip": "3183",
      "place": "HORTEN"
    },
    "geocoded": {
      "lat": "59.42085",
      "lon": "10.48809"
    },
    "yff": false
  },
  {
    "schoolId": "38026",
    "schoolNumber": "39018",
    "county": "Vestfold",
    "organizationNumber": "974575019",
    "organizationNumber360": "974575019",
    "name": "Sandefjord vgs",
    "fullName": "Sandefjord videregående skole",
    "shortName": "SFV",
    "officialName": "Sandefjord videregående skole",
    "accessGroup": "Elev Sandefjord vgs",
    "phoneNumber": "33 48 85 00",
    "mail": "sandefjord.vgs@vtfk.no",
    "address": {
      "street": "Krokemoveien 2-4",
      "zip": "3214",
      "place": "SANDEFJORD"
    },
    "geocoded": {
      "lat": "59.13290",
      "lon": "10.20375"
    },
    "yff": false
  },
  {
    "schoolId": "38024",
    "schoolNumber": "39020",
    "county": "Vestfold",
    "organizationNumber": "974575027",
    "organizationNumber360": "974575027",
    "name": "Thor Heyerdahl vgs",
    "fullName": "Thor Heyerdahl videregående skole",
    "shortName": "THV",
    "officialName": "Thor Heyerdahl videregående skole",
    "accessGroup": "Elev Thor Heyerdahl vgs",
    "phoneNumber": "33 12 31 00",
    "mail": "thorheyerdahl.vgs@vtfk.no",
    "address": {
      "street": "Hoffsgate 6",
      "zip": "3262",
      "place": "LARVIK"
    },
    "geocoded": {
      "lat": "59.04951",
      "lon": "10.05465"
    },
    "yff": false
  },
  {
    "schoolId": "38040",
    "schoolNumber": "39004",
    "county": "Vestfold",
    "organizationNumber": "874575062",
    "organizationNumber360": "874575062",
    "name": "Holmestrand vgs",
    "fullName": "Holmestrand videregående skole",
    "shortName": "HOLV",
    "officialName": "Holmestrand videregående skole",
    "accessGroup": "Elev Holmestrand vgs",
    "phoneNumber": "33 06 63 50",
    "mail": "holmestrand.vgs@vtfk.no",
    "address": {
      "street": "Botne kirkevei 17",
      "zip": "3085",
      "place": "HOLMESTRAND"
    },
    "geocoded": {
      "lat": "59.48239",
      "lon": "10.29552"
    },
    "yff": false
  },
  {
    "schoolId": "38030",
    "schoolNumber": "39014",
    "county": "Vestfold",
    "organizationNumber": "974575000",
    "organizationNumber360": "974575000",
    "name": "Nøtterøy vgs",
    "fullName": "Nøtterøy videregående skole",
    "shortName": "NTV",
    "officialName": "Nøtterøy videregående skole",
    "accessGroup": "Elev Nøtterøy vgs",
    "phoneNumber": "33 35 10 00",
    "mail": "notteroy.vgs@vtfk.no",
    "address": {
      "street": "Rektorveien 10",
      "zip": "3140",
      "place": "NØTTERØY"
    },
    "geocoded": {
      "lat": "59.11995",
      "lon": "10.19118"
    },
    "yff": false
  },
  {
    "schoolId": "70036",
    "schoolNumber": "70036",
    "county": "Telemark",
    "organizationNumber": "874568112",
    "organizationNumber360": "874568112",
    "name": "Fagskolen",
    "fullName": "Fagskolen Vesfold og Telemark",
    "shortName": "FIV",
    "officialName": "Fagskolen Vestfold og Telemark",
    "accessGroup": "Elev fagskolen",
    "phoneNumber": "35 91 77 50",
    "mail": "fagskolen@vtfk.no",
    "address": {
      "street": "Kjølnes Ring 26",
      "zip": "3918",
      "place": "PORSGRUNN"
    },
    "geocoded": {
      "lat": "59.13601",
      "lon": "9.67436"
    },
    "yff": false
  },
  {
    "schoolId": "38131",
    "schoolNumber": "40131",
    "county": "Telemark",
    "organizationNumber": null,
    "organizationNumber360": null,
    "name": "Telemark fylkeskommune privatisteksamen",
    "fullName": "Telemark fylkeskommune privatisteksamen",
    "shortName": null,
    "officialName": "Telemark fylkeskommune privatisteksamen",
    "accessGroup": null,
    "phoneNumber": null,
    "mail": null,
    "address": {
      "street": null,
      "zip": null,
      "place": null
    },
    "geocoded": {
      "lat": null,
      "lon": null
    },
    "yff": false
  },
  {
    "schoolId": "38132",
    "schoolNumber": "39132",
    "county": "Vestfold",
    "organizationNumber": null,
    "organizationNumber360": null,
    "name": "Vestfold fylkeskommune privatisteksamen",
    "fullName": "Vestfold fylkeskommune privatisteksamen",
    "shortName": null,
    "officialName": "Vestfold fylkeskommune privatisteksamen",
    "accessGroup": null,
    "phoneNumber": null,
    "mail": null,
    "address": {
      "street": null,
      "zip": null,
      "place": null
    },
    "geocoded": {
      "lat": null,
      "lon": null
    },
    "yff": false
  }
]
